{
    "cities": [
      {
        "name": "abad",
        "latitude": 22.432778,
        "longitude": 88.777778
      },
      {
        "name": "abadgarh",
        "latitude": 29.581389,
        "longitude": 77.39
      },
      {
        "name": "abadpura",
        "latitude": 31.316667,
        "longitude": 75.566667
      },
      {
        "name": "abaibani",
        "latitude": 22.3,
        "longitude": 86.933333
      },
      {
        "name": "abara",
        "latitude": 21.733333,
        "longitude": 78.566667
      },
      {
        "name": "abbigeri",
        "latitude": 15.583333,
        "longitude": 75.766667
      },
      {
        "name": "abdalpur",
        "latitude": 29.723889,
        "longitude": 77.495556
      },
      {
        "name": "abdul",
        "latitude": 19.666667,
        "longitude": 76.883333
      },
      {
        "name": "abdullahpur",
        "latitude": 30.404167,
        "longitude": 77.887222
      },
      {
        "name": "abdullanpur",
        "latitude": 30.159444,
        "longitude": 77.771944
      },
      {
        "name": "abdullapur",
        "latitude": 29.546389,
        "longitude": 77.430556
      },
      {
        "name": "abdullapuram",
        "latitude": 12.783333,
        "longitude": 79.666667
      },
      {
        "name": "abdullun",
        "latitude": 34.533333,
        "longitude": 75.266667
      },
      {
        "name": "aberdeen",
        "latitude": 11.666667,
        "longitude": 92.733333
      },
      {
        "name": "abersa",
        "latitude": 14.733333,
        "longitude": 74.3
      },
      {
        "name": "abhaipur",
        "latitude": 27.033333,
        "longitude": 94.333333
      },
      {
        "name": "abhana",
        "latitude": 23.7,
        "longitude": 79.533333
      },
      {
        "name": "abhanpur",
        "latitude": 21.05,
        "longitude": 81.716667
      },
      {
        "name": "abhapuri",
        "latitude": 21.716667,
        "longitude": 76.066667
      },
      {
        "name": "abhayapuri",
        "latitude": 26.333333,
        "longitude": 90.666667
      },
      {
        "name": "abhiramapuram",
        "latitude": 13.027778,
        "longitude": 80.2575
      },
      {
        "name": "abhona",
        "latitude": 20.483333,
        "longitude": 73.916667
      },
      {
        "name": "abiramam",
        "latitude": 9.466667,
        "longitude": 78.45
      },
      {
        "name": "ablu",
        "latitude": 30.35,
        "longitude": 74.8
      },
      {
        "name": "abohar",
        "latitude": 30.15,
        "longitude": 74.183333
      },
      {
        "name": "abomgaon",
        "latitude": 26.716667,
        "longitude": 94.116667
      },
      {
        "name": "abring",
        "latitude": 33.7,
        "longitude": 76.583333
      },
      {
        "name": "abtare chak",
        "latitude": 32.616667,
        "longitude": 74.866667
      },
      {
        "name": "abu",
        "latitude": 24.6,
        "longitude": 72.7
      },
      {
        "name": "abul kharana",
        "latitude": 30.15,
        "longitude": 74.55
      },
      {
        "name": "abur",
        "latitude": 34.058333,
        "longitude": 74.534722
      },
      {
        "name": "abu road",
        "latitude": 24.483333,
        "longitude": 72.783333
      },
      {
        "name": "acaro",
        "latitude": 15.533333,
        "longitude": 73.933333
      },
      {
        "name": "accarapatam",
        "latitude": 10.883333,
        "longitude": 79.833333
      },
      {
        "name": "acchabal",
        "latitude": 33.683333,
        "longitude": 75.233333
      },
      {
        "name": "achad",
        "latitude": 20.216667,
        "longitude": 72.883333
      },
      {
        "name": "achalda",
        "latitude": 26.716667,
        "longitude": 79.416667
      },
      {
        "name": "achalpur",
        "latitude": 21.257222,
        "longitude": 77.508611
      },
      {
        "name": "achampet",
        "latitude": 16.65,
        "longitude": 80.133333
      },
      {
        "name": "achanakmar",
        "latitude": 22.416667,
        "longitude": 81.85
      },
      {
        "name": "achankovil",
        "latitude": 9.1,
        "longitude": 77.133333
      },
      {
        "name": "acharapokam",
        "latitude": 12.416667,
        "longitude": 79.816667
      },
      {
        "name": "achcharapakkam",
        "latitude": 12.416667,
        "longitude": 79.816667
      },
      {
        "name": "acheshon",
        "latitude": 28.9,
        "longitude": 95.966667
      },
      {
        "name": "achhabal",
        "latitude": 33.683333,
        "longitude": 75.233333
      },
      {
        "name": "achhahad",
        "latitude": 33.658333,
        "longitude": 74.063889
      },
      {
        "name": "achhawal",
        "latitude": 33.683333,
        "longitude": 75.233333
      },
      {
        "name": "achhayyapalli",
        "latitude": 17.709167,
        "longitude": 78.574444
      },
      {
        "name": "achhibal",
        "latitude": 33.683333,
        "longitude": 75.233333
      },
      {
        "name": "achhnera",
        "latitude": 27.183333,
        "longitude": 77.766667
      },
      {
        "name": "achhota",
        "latitude": 20.671944,
        "longitude": 81.58
      },
      {
        "name": "achina",
        "latitude": 27.066667,
        "longitude": 73.316667
      },
      {
        "name": "achirik",
        "latitude": 34.133333,
        "longitude": 77.2
      },
      {
        "name": "achna",
        "latitude": 22.132778,
        "longitude": 88.33
      },
      {
        "name": "achnapalli",
        "latitude": 17.9925,
        "longitude": 78.081389
      },
      {
        "name": "achnera",
        "latitude": 27.183333,
        "longitude": 77.766667
      },
      {
        "name": "achra",
        "latitude": 16.216667,
        "longitude": 73.466667
      },
      {
        "name": "ackamal",
        "latitude": 34.556944,
        "longitude": 76.158333
      },
      {
        "name": "ada",
        "latitude": 25.75,
        "longitude": 72.233333
      },
      {
        "name": "adaba",
        "latitude": 19.5,
        "longitude": 84.183333
      },
      {
        "name": "adad",
        "latitude": 18.391111,
        "longitude": 72.950833
      },
      {
        "name": "adalair",
        "latitude": 32.540278,
        "longitude": 74.85
      },
      {
        "name": "adalaj",
        "latitude": 23.166667,
        "longitude": 72.583333
      },
      {
        "name": "adamankotta",
        "latitude": 12.083333,
        "longitude": 78.116667
      },
      {
        "name": "adamankottai",
        "latitude": 12.083333,
        "longitude": 78.116667
      },
      {
        "name": "adambakkam",
        "latitude": 12.9925,
        "longitude": 80.204444
      },
      {
        "name": "adampur",
        "latitude": 29.75,
        "longitude": 78.116667
      },
      {
        "name": "adamwala kera",
        "latitude": 29.05,
        "longitude": 72.983333
      },
      {
        "name": "adan",
        "latitude": 30.496111,
        "longitude": 77.755278
      },
      {
        "name": "adanakkottai",
        "latitude": 10.55,
        "longitude": 78.966667
      },
      {
        "name": "adanur",
        "latitude": 12.033333,
        "longitude": 78.983333
      },
      {
        "name": "adapur",
        "latitude": 26.95,
        "longitude": 84.966667
      },
      {
        "name": "adarki",
        "latitude": 17.916667,
        "longitude": 74.216667
      },
      {
        "name": "adarki buzurg",
        "latitude": 17.916667,
        "longitude": 74.216667
      },
      {
        "name": "adas",
        "latitude": 18.766667,
        "longitude": 76.233333
      },
      {
        "name": "adas bidh",
        "latitude": 18.766667,
        "longitude": 76.233333
      },
      {
        "name": "adavad",
        "latitude": 21.216667,
        "longitude": 75.45
      },
      {
        "name": "adbadri",
        "latitude": 30.15,
        "longitude": 79.25
      },
      {
        "name": "adbhar",
        "latitude": 21.95,
        "longitude": 83.033333
      },
      {
        "name": "addanki",
        "latitude": 15.816667,
        "longitude": 79.983333
      },
      {
        "name": "addatigala",
        "latitude": 17.483333,
        "longitude": 82.016667
      },
      {
        "name": "adegaon",
        "latitude": 22.616667,
        "longitude": 79.483333
      },
      {
        "name": "adesar",
        "latitude": 23.55,
        "longitude": 70.983333
      },
      {
        "name": "adgal",
        "latitude": 16.433333,
        "longitude": 74.85
      },
      {
        "name": "adgaon",
        "latitude": 18.2225,
        "longitude": 72.948333
      },
      {
        "name": "adhatal",
        "latitude": 22.865,
        "longitude": 88.527778
      },
      {
        "name": "adhaura",
        "latitude": 24.7,
        "longitude": 83.616667
      },
      {
        "name": "adhe",
        "latitude": 17.916667,
        "longitude": 73.083333
      },
      {
        "name": "adhoi",
        "latitude": 23.4,
        "longitude": 70.516667
      },
      {
        "name": "adhonigarh",
        "latitude": 20.516667,
        "longitude": 84.466667
      },
      {
        "name": "adi",
        "latitude": 18.389167,
        "longitude": 72.930278
      },
      {
        "name": "adibatla",
        "latitude": 17.231389,
        "longitude": 78.542778
      },
      {
        "name": "adilabad",
        "latitude": 19.666667,
        "longitude": 78.533333
      },
      {
        "name": "adin",
        "latitude": 34.084722,
        "longitude": 74.594444
      },
      {
        "name": "adipanka",
        "latitude": 19.766667,
        "longitude": 84.166667
      },
      {
        "name": "adipur",
        "latitude": 34.270833,
        "longitude": 74.488889
      },
      {
        "name": "adirampatnam",
        "latitude": 10.35,
        "longitude": 79.4
      },
      {
        "name": "adirampattinam",
        "latitude": 10.35,
        "longitude": 79.4
      },
      {
        "name": "adirangam",
        "latitude": 10.483333,
        "longitude": 79.666667
      },
      {
        "name": "adityana",
        "latitude": 21.715556,
        "longitude": 69.6825
      },
      {
        "name": "adiura",
        "latitude": 16.716667,
        "longitude": 73.35
      },
      {
        "name": "adivra",
        "latitude": 16.716667,
        "longitude": 73.35
      },
      {
        "name": "adiyi masjid",
        "latitude": 17.700278,
        "longitude": 78.676944
      },
      {
        "name": "adki",
        "latitude": 17.116667,
        "longitude": 77.366667
      },
      {
        "name": "adkot",
        "latitude": 22.0,
        "longitude": 71.133333
      },
      {
        "name": "adoli",
        "latitude": 18.266667,
        "longitude": 73.766667
      },
      {
        "name": "adoni",
        "latitude": 15.633333,
        "longitude": 77.283333
      },
      {
        "name": "adra",
        "latitude": 23.5,
        "longitude": 86.666667
      },
      {
        "name": "adri",
        "latitude": 20.961944,
        "longitude": 70.288611
      },
      {
        "name": "adriana",
        "latitude": 23.433333,
        "longitude": 71.7
      },
      {
        "name": "adriyana",
        "latitude": 23.433333,
        "longitude": 71.7
      },
      {
        "name": "adsar",
        "latitude": 28.324167,
        "longitude": 73.899167
      },
      {
        "name": "adsulim",
        "latitude": 15.25,
        "longitude": 73.916667
      },
      {
        "name": "adugiri",
        "latitude": 25.433333,
        "longitude": 90.233333
      },
      {
        "name": "adul",
        "latitude": 19.716667,
        "longitude": 75.533333
      },
      {
        "name": "adul buzurg",
        "latitude": 19.716667,
        "longitude": 75.533333
      },
      {
        "name": "adul khurd",
        "latitude": 19.716667,
        "longitude": 75.533333
      },
      {
        "name": "adur",
        "latitude": 14.766667,
        "longitude": 75.25
      },
      {
        "name": "aduripalle",
        "latitude": 14.433333,
        "longitude": 79.6
      },
      {
        "name": "aduru",
        "latitude": 12.566667,
        "longitude": 75.166667
      },
      {
        "name": "aduturai",
        "latitude": 11.033333,
        "longitude": 79.483333
      },
      {
        "name": "advi devalpalli",
        "latitude": 16.666667,
        "longitude": 79.516667
      },
      {
        "name": "advolpale",
        "latitude": 15.633333,
        "longitude": 73.883333
      },
      {
        "name": "advota",
        "latitude": 15.016667,
        "longitude": 74.016667
      },
      {
        "name": "adwal",
        "latitude": 22.433333,
        "longitude": 71.916667
      },
      {
        "name": "adwana",
        "latitude": 21.916667,
        "longitude": 69.583333
      },
      {
        "name": "adwani",
        "latitude": 30.083333,
        "longitude": 78.716667
      },
      {
        "name": "adyal",
        "latitude": 20.933333,
        "longitude": 79.716667
      },
      {
        "name": "adyar",
        "latitude": 13.004444,
        "longitude": 80.258333
      },
      {
        "name": "afgan",
        "latitude": 29.689167,
        "longitude": 77.318056
      },
      {
        "name": "afzalgarh",
        "latitude": 29.4,
        "longitude": 78.683333
      },
      {
        "name": "afzalpur",
        "latitude": 23.966667,
        "longitude": 75.233333
      },
      {
        "name": "agacaim",
        "latitude": 15.416667,
        "longitude": 73.9
      },
      {
        "name": "agaibani",
        "latitude": 22.3,
        "longitude": 86.933333
      },
      {
        "name": "agalpur",
        "latitude": 21.016667,
        "longitude": 83.4
      },
      {
        "name": "agamani",
        "latitude": 26.2,
        "longitude": 89.783333
      },
      {
        "name": "agar",
        "latitude": 23.7,
        "longitude": 76.016667
      },
      {
        "name": "agaram",
        "latitude": 12.816667,
        "longitude": 78.883333
      },
      {
        "name": "agargaon",
        "latitude": 21.083333,
        "longitude": 79.483333
      },
      {
        "name": "agarkhed",
        "latitude": 17.316667,
        "longitude": 76.066667
      },
      {
        "name": "agar panchaitan",
        "latitude": 18.18,
        "longitude": 72.99
      },
      {
        "name": "agarpara",
        "latitude": 22.683333,
        "longitude": 88.366667
      },
      {
        "name": "agartala",
        "latitude": 23.836389,
        "longitude": 91.275
      },
      {
        "name": "agarvado",
        "latitude": 15.633333,
        "longitude": 73.75
      },
      {
        "name": "agas",
        "latitude": 22.516667,
        "longitude": 72.883333
      },
      {
        "name": "agashi",
        "latitude": 19.15,
        "longitude": 73.466667
      },
      {
        "name": "agasnal",
        "latitude": 17.05,
        "longitude": 75.783333
      },
      {
        "name": "agasod",
        "latitude": 24.283333,
        "longitude": 78.15
      },
      {
        "name": "agasode",
        "latitude": 24.283333,
        "longitude": 78.15
      },
      {
        "name": "agastiampalli",
        "latitude": 10.35,
        "longitude": 79.866667
      },
      {
        "name": "agastiswaram",
        "latitude": 8.1,
        "longitude": 77.533333
      },
      {
        "name": "agastyampalli",
        "latitude": 10.35,
        "longitude": 79.866667
      },
      {
        "name": "agatrai",
        "latitude": 21.366667,
        "longitude": 70.25
      },
      {
        "name": "agatral",
        "latitude": 21.366667,
        "longitude": 70.25
      },
      {
        "name": "agaundh",
        "latitude": 29.983333,
        "longitude": 76.25
      },
      {
        "name": "aghapalli",
        "latitude": 17.136667,
        "longitude": 78.673333
      },
      {
        "name": "aghapur",
        "latitude": 27.15,
        "longitude": 77.516667
      },
      {
        "name": "aghar",
        "latitude": 31.616667,
        "longitude": 76.583333
      },
      {
        "name": "aghatapur",
        "latitude": 24.583333,
        "longitude": 73.716667
      },
      {
        "name": "agia",
        "latitude": 26.083333,
        "longitude": 90.55
      },
      {
        "name": "agiaon",
        "latitude": 25.366667,
        "longitude": 84.616667
      },
      {
        "name": "agiripalle",
        "latitude": 16.683333,
        "longitude": 80.65
      },
      {
        "name": "aglot",
        "latitude": 15.416667,
        "longitude": 74.15
      },
      {
        "name": "agni",
        "latitude": 16.566667,
        "longitude": 76.466667
      },
      {
        "name": "agoada",
        "latitude": 15.516667,
        "longitude": 73.766667
      },
      {
        "name": "agol",
        "latitude": 23.15,
        "longitude": 72.266667
      },
      {
        "name": "agolai",
        "latitude": 26.283333,
        "longitude": 72.633333
      },
      {
        "name": "agonda",
        "latitude": 15.05,
        "longitude": 73.983333
      },
      {
        "name": "agori",
        "latitude": 24.55,
        "longitude": 82.95
      },
      {
        "name": "agori khas",
        "latitude": 24.55,
        "longitude": 82.95
      },
      {
        "name": "agra",
        "latitude": 27.183333,
        "longitude": 78.016667
      },
      {
        "name": "agra belanganj",
        "latitude": 27.183333,
        "longitude": 78.016667
      },
      {
        "name": "agrahar",
        "latitude": 17.790556,
        "longitude": 78.510278
      },
      {
        "name": "agraharam",
        "latitude": 18.333333,
        "longitude": 84.116667
      },
      {
        "name": "agral",
        "latitude": 22.933333,
        "longitude": 74.583333
      },
      {
        "name": "agrat",
        "latitude": 33.302778,
        "longitude": 74.247222
      },
      {
        "name": "agrawa",
        "latitude": 24.95,
        "longitude": 71.533333
      },
      {
        "name": "agria",
        "latitude": 25.266667,
        "longitude": 73.933333
      },
      {
        "name": "agroha",
        "latitude": 29.333333,
        "longitude": 75.633333
      },
      {
        "name": "agrong",
        "latitude": 26.6,
        "longitude": 90.733333
      },
      {
        "name": "agsur",
        "latitude": 14.666667,
        "longitude": 74.4
      },
      {
        "name": "aguada",
        "latitude": 15.516667,
        "longitude": 73.766667
      },
      {
        "name": "aguada fort",
        "latitude": 15.516667,
        "longitude": 73.766667
      },
      {
        "name": "agucha",
        "latitude": 25.816667,
        "longitude": 74.716667
      },
      {
        "name": "aguncha",
        "latitude": 25.816667,
        "longitude": 74.716667
      },
      {
        "name": "agva",
        "latitude": 17.383333,
        "longitude": 73.516667
      },
      {
        "name": "agwad",
        "latitude": 15.516667,
        "longitude": 73.766667
      },
      {
        "name": "ahad",
        "latitude": 24.583333,
        "longitude": 73.716667
      },
      {
        "name": "ahadio",
        "latitude": 34.325,
        "longitude": 74.113889
      },
      {
        "name": "ahagam",
        "latitude": 34.4,
        "longitude": 74.197222
      },
      {
        "name": "ahan",
        "latitude": 34.229167,
        "longitude": 74.666667
      },
      {
        "name": "ahar",
        "latitude": 28.483333,
        "longitude": 78.266667
      },
      {
        "name": "aharan",
        "latitude": 27.366667,
        "longitude": 78.25
      },
      {
        "name": "aharwan",
        "latitude": 29.616667,
        "longitude": 75.55
      },
      {
        "name": "ahataguri",
        "latitude": 26.833333,
        "longitude": 93.866667
      },
      {
        "name": "ahi",
        "latitude": 31.433333,
        "longitude": 77.416667
      },
      {
        "name": "ahias",
        "latitude": 20.866667,
        "longitude": 86.516667
      },
      {
        "name": "ahiri",
        "latitude": 19.4,
        "longitude": 80.016667
      },
      {
        "name": "ahirkheda",
        "latitude": 21.983333,
        "longitude": 75.866667
      },
      {
        "name": "ahirpara",
        "latitude": 22.716667,
        "longitude": 82.216667
      },
      {
        "name": "ahmadabad",
        "latitude": 23.033333,
        "longitude": 72.616667
      },
      {
        "name": "ahmadgarh",
        "latitude": 28.25,
        "longitude": 78.116667
      },
      {
        "name": "ahmadguda",
        "latitude": 17.500278,
        "longitude": 78.621944
      },
      {
        "name": "ahmadipur",
        "latitude": 17.921667,
        "longitude": 78.718889
      },
      {
        "name": "ahmadnagar",
        "latitude": 19.083333,
        "longitude": 74.733333
      },
      {
        "name": "ahmadpur",
        "latitude": 29.634444,
        "longitude": 77.411111
      },
      {
        "name": "ahmedabad",
        "latitude": 23.033333,
        "longitude": 72.616667
      },
      {
        "name": "ahmednagar",
        "latitude": 19.083333,
        "longitude": 74.733333
      },
      {
        "name": "ahmedpur",
        "latitude": 18.7,
        "longitude": 76.933333
      },
      {
        "name": "ahobilam",
        "latitude": 15.133333,
        "longitude": 78.716667
      },
      {
        "name": "aholin",
        "latitude": 28.433333,
        "longitude": 95.7
      },
      {
        "name": "ahomgaon",
        "latitude": 26.716667,
        "longitude": 94.116667
      },
      {
        "name": "ahor",
        "latitude": 25.366667,
        "longitude": 72.783333
      },
      {
        "name": "ahraula",
        "latitude": 26.183333,
        "longitude": 82.916667
      },
      {
        "name": "ahraura",
        "latitude": 25.016667,
        "longitude": 83.016667
      },
      {
        "name": "ahu",
        "latitude": 22.666667,
        "longitude": 75.216667
      },
      {
        "name": "ahupe",
        "latitude": 19.183333,
        "longitude": 73.6
      },
      {
        "name": "ahwa",
        "latitude": 20.75,
        "longitude": 73.683333
      },
      {
        "name": "ahweiba",
        "latitude": 34.558333,
        "longitude": 75.041667
      },
      {
        "name": "aiball",
        "latitude": 16.0,
        "longitude": 75.883333
      },
      {
        "name": "aichanahalli",
        "latitude": 12.75,
        "longitude": 76.233333
      },
      {
        "name": "aichisagami",
        "latitude": 26.116667,
        "longitude": 94.583333
      },
      {
        "name": "aichwara",
        "latitude": 25.716667,
        "longitude": 77.533333
      },
      {
        "name": "aigale",
        "latitude": 16.75,
        "longitude": 75.233333
      },
      {
        "name": "aigali",
        "latitude": 16.75,
        "longitude": 75.233333
      },
      {
        "name": "aihol",
        "latitude": 23.933333,
        "longitude": 93.983333
      },
      {
        "name": "aiiamari",
        "latitude": 17.821944,
        "longitude": 78.112222
      },
      {
        "name": "aijal",
        "latitude": 23.724444,
        "longitude": 92.7175
      },
      {
        "name": "aiju",
        "latitude": 32.016667,
        "longitude": 76.683333
      },
      {
        "name": "ailabhatta",
        "latitude": 20.25,
        "longitude": 83.016667
      },
      {
        "name": "ailam",
        "latitude": 29.283333,
        "longitude": 77.3
      },
      {
        "name": "aima",
        "latitude": 22.406667,
        "longitude": 88.180278
      },
      {
        "name": "aimaburan",
        "latitude": 34.158333,
        "longitude": 74.572222
      },
      {
        "name": "aimand",
        "latitude": 22.566667,
        "longitude": 72.933333
      },
      {
        "name": "ainak",
        "latitude": 22.383333,
        "longitude": 93.15
      },
      {
        "name": "ainapur",
        "latitude": 16.666667,
        "longitude": 74.9
      },
      {
        "name": "ainavolu",
        "latitude": 15.983333,
        "longitude": 79.666667
      },
      {
        "name": "ainbushahi da danna",
        "latitude": 32.969444,
        "longitude": 74.5875
      },
      {
        "name": "aino",
        "latitude": 26.554444,
        "longitude": 78.344444
      },
      {
        "name": "ainpur",
        "latitude": 21.166667,
        "longitude": 76.033333
      },
      {
        "name": "air khas",
        "latitude": 25.916667,
        "longitude": 79.516667
      },
      {
        "name": "airwa",
        "latitude": 26.9,
        "longitude": 79.433333
      },
      {
        "name": "airwa katra",
        "latitude": 26.9,
        "longitude": 79.433333
      },
      {
        "name": "aish mugam",
        "latitude": 33.866667,
        "longitude": 75.283333
      },
      {
        "name": "aisru",
        "latitude": 30.671667,
        "longitude": 76.111111
      },
      {
        "name": "aisru kalan",
        "latitude": 30.671667,
        "longitude": 76.111111
      },
      {
        "name": "aita",
        "latitude": 29.809722,
        "longitude": 78.597222
      },
      {
        "name": "ait",
        "latitude": 25.9,
        "longitude": 79.25
      },
      {
        "name": "aitham",
        "latitude": 32.775,
        "longitude": 74.998611
      },
      {
        "name": "aithar",
        "latitude": 26.559167,
        "longitude": 78.673056
      },
      {
        "name": "aivalli",
        "latitude": 16.0,
        "longitude": 75.883333
      },
      {
        "name": "aivarkhandpur",
        "latitude": 13.137222,
        "longitude": 77.492222
      },
      {
        "name": "aiyar",
        "latitude": 23.683333,
        "longitude": 85.75
      },
      {
        "name": "aizal",
        "latitude": 23.724444,
        "longitude": 92.7175
      },
      {
        "name": "aizawl",
        "latitude": 23.724444,
        "longitude": 92.7175
      },
      {
        "name": "aizwal",
        "latitude": 23.724444,
        "longitude": 92.7175
      },
      {
        "name": "ajab",
        "latitude": 21.266667,
        "longitude": 70.35
      },
      {
        "name": "ajabgarh",
        "latitude": 27.2,
        "longitude": 76.283333
      },
      {
        "name": "ajaigarh",
        "latitude": 24.9,
        "longitude": 80.266667
      },
      {
        "name": "ajaipal ka dungri",
        "latitude": 25.726389,
        "longitude": 75.645
      },
      {
        "name": "ajanta",
        "latitude": 20.533333,
        "longitude": 75.75
      },
      {
        "name": "ajapura",
        "latitude": 25.616667,
        "longitude": 76.666667
      },
      {
        "name": "ajarthala",
        "latitude": 23.836389,
        "longitude": 91.275
      },
      {
        "name": "ajas",
        "latitude": 34.333333,
        "longitude": 74.683333
      },
      {
        "name": "ajasar",
        "latitude": 27.25,
        "longitude": 71.716667
      },
      {
        "name": "ajayagad",
        "latitude": 18.916667,
        "longitude": 84.083333
      },
      {
        "name": "ajgain",
        "latitude": 26.616667,
        "longitude": 80.633333
      },
      {
        "name": "ajgaon",
        "latitude": 15.766667,
        "longitude": 73.7
      },
      {
        "name": "ajgarhbura",
        "latitude": 23.966667,
        "longitude": 82.316667
      },
      {
        "name": "ajita",
        "latitude": 25.483333,
        "longitude": 75.85
      },
      {
        "name": "ajitpura",
        "latitude": 29.016667,
        "longitude": 75.316667
      },
      {
        "name": "ajitsar",
        "latitude": 28.268889,
        "longitude": 74.645
      },
      {
        "name": "ajitwal",
        "latitude": 30.816667,
        "longitude": 75.333333
      },
      {
        "name": "ajjampur",
        "latitude": 13.728056,
        "longitude": 76.009444
      },
      {
        "name": "ajmer",
        "latitude": 26.45,
        "longitude": 74.633333
      },
      {
        "name": "ajmer city",
        "latitude": 26.45,
        "longitude": 74.633333
      },
      {
        "name": "ajnala",
        "latitude": 31.8425,
        "longitude": 74.758889
      },
      {
        "name": "ajnas",
        "latitude": 22.55,
        "longitude": 76.833333
      },
      {
        "name": "ajni",
        "latitude": 21.15,
        "longitude": 79.1
      },
      {
        "name": "ajodhya",
        "latitude": 26.8,
        "longitude": 82.2
      },
      {
        "name": "ajot",
        "latitude": 33.772222,
        "longitude": 74.066667
      },
      {
        "name": "ajra",
        "latitude": 16.116667,
        "longitude": 74.2
      },
      {
        "name": "ajram",
        "latitude": 31.466667,
        "longitude": 75.816667
      },
      {
        "name": "akadia",
        "latitude": 21.65,
        "longitude": 71.1
      },
      {
        "name": "akahal",
        "latitude": 34.25,
        "longitude": 74.904167
      },
      {
        "name": "akajhiri",
        "latitude": 25.15,
        "longitude": 77.85
      },
      {
        "name": "akalgarh",
        "latitude": 29.816667,
        "longitude": 75.883333
      },
      {
        "name": "akalkot",
        "latitude": 17.533333,
        "longitude": 76.216667
      },
      {
        "name": "akalsia",
        "latitude": 30.133333,
        "longitude": 77.633333
      },
      {
        "name": "akaltara",
        "latitude": 22.016667,
        "longitude": 82.433333
      },
      {
        "name": "akapur",
        "latitude": 29.664722,
        "longitude": 77.292778
      },
      {
        "name": "akaram",
        "latitude": 17.820556,
        "longitude": 78.740833
      },
      {
        "name": "akarpati",
        "latitude": 19.816667,
        "longitude": 72.666667
      },
      {
        "name": "akawaram",
        "latitude": 16.466667,
        "longitude": 79.016667
      },
      {
        "name": "akbarpur",
        "latitude": 24.65,
        "longitude": 83.966667
      },
      {
        "name": "akbarpur aunchha",
        "latitude": 27.316667,
        "longitude": 78.833333
      },
      {
        "name": "akera",
        "latitude": 24.416667,
        "longitude": 76.566667
      },
      {
        "name": "akera chhota",
        "latitude": 19.616667,
        "longitude": 80.3
      },
      {
        "name": "akha",
        "latitude": 28.283333,
        "longitude": 79.35
      },
      {
        "name": "akharjapet",
        "latitude": 17.643333,
        "longitude": 78.545833
      },
      {
        "name": "akhegwo",
        "latitude": 25.733333,
        "longitude": 94.683333
      },
      {
        "name": "akhipur",
        "latitude": 22.635,
        "longitude": 88.8075
      },
      {
        "name": "akhli",
        "latitude": 32.995833,
        "longitude": 74.908333
      },
      {
        "name": "akhnur",
        "latitude": 32.866667,
        "longitude": 74.733333
      },
      {
        "name": "akhori",
        "latitude": 29.959444,
        "longitude": 78.614444
      },
      {
        "name": "akhrena",
        "latitude": 29.782222,
        "longitude": 78.661111
      },
      {
        "name": "akior",
        "latitude": 25.556111,
        "longitude": 75.526111
      },
      {
        "name": "akividu",
        "latitude": 16.6,
        "longitude": 81.383333
      },
      {
        "name": "akkammapettai",
        "latitude": 11.466667,
        "longitude": 77.883333
      },
      {
        "name": "akkaraivadi",
        "latitude": 10.883333,
        "longitude": 79.833333
      },
      {
        "name": "akkihebbal",
        "latitude": 12.608889,
        "longitude": 76.399444
      },
      {
        "name": "akkivaram",
        "latitude": 18.366667,
        "longitude": 84.15
      },
      {
        "name": "akkuvaram",
        "latitude": 18.366667,
        "longitude": 84.15
      },
      {
        "name": "akla",
        "latitude": 27.016667,
        "longitude": 73.416667
      },
      {
        "name": "aklera",
        "latitude": 24.416667,
        "longitude": 76.566667
      },
      {
        "name": "akli",
        "latitude": 25.733333,
        "longitude": 70.283333
      },
      {
        "name": "aklui",
        "latitude": 17.9,
        "longitude": 75.033333
      },
      {
        "name": "akluj",
        "latitude": 17.9,
        "longitude": 75.033333
      },
      {
        "name": "aklvidu",
        "latitude": 16.583333,
        "longitude": 81.383333
      },
      {
        "name": "aknapur",
        "latitude": 22.893056,
        "longitude": 88.053611
      },
      {
        "name": "akoda",
        "latitude": 25.529444,
        "longitude": 75.665278
      },
      {
        "name": "akodha",
        "latitude": 25.25,
        "longitude": 81.9
      },
      {
        "name": "akodia",
        "latitude": 23.383333,
        "longitude": 76.6
      },
      {
        "name": "akola",
        "latitude": 24.766667,
        "longitude": 74.2
      },
      {
        "name": "akolda",
        "latitude": 21.416667,
        "longitude": 71.483333
      },
      {
        "name": "akolia",
        "latitude": 22.616667,
        "longitude": 75.666667
      },
      {
        "name": "akolin",
        "latitude": 28.8,
        "longitude": 95.95
      },
      {
        "name": "akoliya",
        "latitude": 25.613333,
        "longitude": 75.655278
      },
      {
        "name": "akolner",
        "latitude": 18.983333,
        "longitude": 74.666667
      },
      {
        "name": "akora",
        "latitude": 25.6,
        "longitude": 71.183333
      },
      {
        "name": "akorha",
        "latitude": 24.766667,
        "longitude": 84.183333
      },
      {
        "name": "akorhi",
        "latitude": 25.166667,
        "longitude": 82.45
      },
      {
        "name": "akoria",
        "latitude": 25.825,
        "longitude": 75.6875
      },
      {
        "name": "akot",
        "latitude": 21.096389,
        "longitude": 77.058611
      },
      {
        "name": "akoti",
        "latitude": 21.166667,
        "longitude": 73.183333
      },
      {
        "name": "akra",
        "latitude": 29.88,
        "longitude": 78.504444
      },
      {
        "name": "akrabad",
        "latitude": 27.816667,
        "longitude": 78.283333
      },
      {
        "name": "akria",
        "latitude": 22.1,
        "longitude": 71.45
      },
      {
        "name": "akri",
        "latitude": 23.383333,
        "longitude": 68.6
      },
      {
        "name": "akrund",
        "latitude": 23.283333,
        "longitude": 73.116667
      },
      {
        "name": "aksapur",
        "latitude": 19.766667,
        "longitude": 79.65
      },
      {
        "name": "aktasa",
        "latitude": 25.319167,
        "longitude": 75.725
      },
      {
        "name": "akunpalli",
        "latitude": 17.088333,
        "longitude": 78.389722
      },
      {
        "name": "ala",
        "latitude": 32.516667,
        "longitude": 74.834722
      },
      {
        "name": "alagapuram",
        "latitude": 11.883333,
        "longitude": 78.916667
      },
      {
        "name": "alagiapandipuram",
        "latitude": 8.3,
        "longitude": 77.45
      },
      {
        "name": "alai",
        "latitude": 27.333333,
        "longitude": 73.566667
      },
      {
        "name": "alamadi",
        "latitude": 13.208611,
        "longitude": 80.107778
      },
      {
        "name": "alamanda",
        "latitude": 18.866667,
        "longitude": 83.316667
      },
      {
        "name": "alame chak",
        "latitude": 32.658333,
        "longitude": 74.758333
      },
      {
        "name": "alamgaon",
        "latitude": 19.733333,
        "longitude": 75.766667
      },
      {
        "name": "alampur",
        "latitude": 26.024444,
        "longitude": 78.7925
      },
      {
        "name": "alamsar",
        "latitude": 25.333333,
        "longitude": 71.083333
      },
      {
        "name": "alamuru",
        "latitude": 16.783333,
        "longitude": 81.9
      },
      {
        "name": "alanallur",
        "latitude": 11.016667,
        "longitude": 76.35
      },
      {
        "name": "aland",
        "latitude": 17.566667,
        "longitude": 76.566667
      },
      {
        "name": "alandi",
        "latitude": 18.133333,
        "longitude": 77.233333
      },
      {
        "name": "alandi-devachi",
        "latitude": 18.666667,
        "longitude": 73.9
      },
      {
        "name": "alandoor",
        "latitude": 13.0025,
        "longitude": 80.206111
      },
      {
        "name": "alandurai",
        "latitude": 10.933333,
        "longitude": 76.8
      },
      {
        "name": "alandur",
        "latitude": 13.0025,
        "longitude": 80.206111
      },
      {
        "name": "alanganallur",
        "latitude": 10.066667,
        "longitude": 78.05
      },
      {
        "name": "alangayam",
        "latitude": 12.6,
        "longitude": 78.75
      },
      {
        "name": "alangiem",
        "latitude": 10.6,
        "longitude": 77.5
      },
      {
        "name": "alangiyam",
        "latitude": 10.6,
        "longitude": 77.5
      },
      {
        "name": "alangudi",
        "latitude": 10.366667,
        "longitude": 78.983333
      },
      {
        "name": "alangulam",
        "latitude": 8.866667,
        "longitude": 77.5
      },
      {
        "name": "alapakam",
        "latitude": 11.6,
        "longitude": 79.733333
      },
      {
        "name": "alapalli",
        "latitude": 9.494167,
        "longitude": 76.3275
      },
      {
        "name": "alapillai",
        "latitude": 19.416667,
        "longitude": 80.066667
      },
      {
        "name": "alapolai",
        "latitude": 9.494167,
        "longitude": 76.3275
      },
      {
        "name": "alappakkam",
        "latitude": 11.6,
        "longitude": 79.733333
      },
      {
        "name": "alappula",
        "latitude": 9.494167,
        "longitude": 76.3275
      },
      {
        "name": "alappuzha",
        "latitude": 9.494167,
        "longitude": 76.3275
      },
      {
        "name": "alapulai",
        "latitude": 9.494167,
        "longitude": 76.3275
      },
      {
        "name": "alapur",
        "latitude": 34.047222,
        "longitude": 74.543056
      },
      {
        "name": "alas",
        "latitude": 32.766667,
        "longitude": 75.983333
      },
      {
        "name": "alate",
        "latitude": 16.766667,
        "longitude": 74.4
      },
      {
        "name": "alattur",
        "latitude": 12.233333,
        "longitude": 79.866667
      },
      {
        "name": "alatur",
        "latitude": 12.233333,
        "longitude": 79.866667
      },
      {
        "name": "alawalpur",
        "latitude": 30.041667,
        "longitude": 77.776389
      },
      {
        "name": "alayangudi",
        "latitude": 10.933333,
        "longitude": 79.766667
      },
      {
        "name": "albaka",
        "latitude": 18.216667,
        "longitude": 80.666667
      },
      {
        "name": "alchi gompa",
        "latitude": 34.216667,
        "longitude": 77.166667
      },
      {
        "name": "aldaba",
        "latitude": 29.793611,
        "longitude": 78.6075
      },
      {
        "name": "aldona",
        "latitude": 15.583333,
        "longitude": 73.866667
      },
      {
        "name": "aldur",
        "latitude": 13.25,
        "longitude": 75.666667
      },
      {
        "name": "ale",
        "latitude": 19.166667,
        "longitude": 74.116667
      },
      {
        "name": "alegaon",
        "latitude": 18.6,
        "longitude": 74.316667
      },
      {
        "name": "aleppi",
        "latitude": 9.494167,
        "longitude": 76.3275
      },
      {
        "name": "aleru",
        "latitude": 17.65,
        "longitude": 79.05
      },
      {
        "name": "alewabi",
        "latitude": 20.383333,
        "longitude": 79.7
      },
      {
        "name": "alewahi",
        "latitude": 20.383333,
        "longitude": 79.7
      },
      {
        "name": "algur",
        "latitude": 16.7,
        "longitude": 76.35
      },
      {
        "name": "aliabad",
        "latitude": 33.65,
        "longitude": 74.583333
      },
      {
        "name": "aliabad sarai",
        "latitude": 33.65,
        "longitude": 74.583333
      },
      {
        "name": "ali",
        "latitude": 22.183333,
        "longitude": 74.366667
      },
      {
        "name": "alibag",
        "latitude": 18.641111,
        "longitude": 72.879167
      },
      {
        "name": "alibagh",
        "latitude": 18.641111,
        "longitude": 72.879167
      },
      {
        "name": "alidar",
        "latitude": 20.9,
        "longitude": 70.85
      },
      {
        "name": "aliganj",
        "latitude": 27.5,
        "longitude": 79.183333
      },
      {
        "name": "aligarh",
        "latitude": 27.883333,
        "longitude": 78.083333
      },
      {
        "name": "aliguda",
        "latitude": 17.264722,
        "longitude": 78.443333
      },
      {
        "name": "alika",
        "latitude": 29.733333,
        "longitude": 75.433333
      },
      {
        "name": "ali kadal",
        "latitude": 34.094444,
        "longitude": 74.804167
      },
      {
        "name": "alikhen",
        "latitude": 17.85,
        "longitude": 77.266667
      },
      {
        "name": "ali khera",
        "latitude": 27.316667,
        "longitude": 79.166667
      },
      {
        "name": "alikher",
        "latitude": 17.85,
        "longitude": 77.266667
      },
      {
        "name": "alimod",
        "latitude": 22.4,
        "longitude": 78.383333
      },
      {
        "name": "alina",
        "latitude": 22.816667,
        "longitude": 73.05
      },
      {
        "name": "alinagar",
        "latitude": 26.631389,
        "longitude": 83.032222
      },
      {
        "name": "alinjivakkam",
        "latitude": 13.186389,
        "longitude": 80.196389
      },
      {
        "name": "alipore",
        "latitude": 22.530278,
        "longitude": 88.334167
      },
      {
        "name": "alipukur",
        "latitude": 22.448611,
        "longitude": 88.108611
      },
      {
        "name": "alipura",
        "latitude": 25.183333,
        "longitude": 79.35
      },
      {
        "name": "alipur",
        "latitude": 29.624167,
        "longitude": 77.493333
      },
      {
        "name": "alipur duar",
        "latitude": 26.483333,
        "longitude": 89.566667
      },
      {
        "name": "alipur duars",
        "latitude": 26.483333,
        "longitude": 89.566667
      },
      {
        "name": "alirajapet",
        "latitude": 17.787222,
        "longitude": 78.781389
      },
      {
        "name": "alirajpur",
        "latitude": 22.3,
        "longitude": 74.35
      },
      {
        "name": "aliwal",
        "latitude": 30.95,
        "longitude": 75.6
      },
      {
        "name": "aliyabad",
        "latitude": 12.633333,
        "longitude": 79.233333
      },
      {
        "name": "aljahdurg",
        "latitude": 17.966667,
        "longitude": 77.916667
      },
      {
        "name": "alkodiya",
        "latitude": 25.322778,
        "longitude": 75.691667
      },
      {
        "name": "alkuti",
        "latitude": 19.05,
        "longitude": 74.233333
      },
      {
        "name": "alla abba habab",
        "latitude": 25.45,
        "longitude": 81.85
      },
      {
        "name": "allagadda",
        "latitude": 15.133333,
        "longitude": 78.516667
      },
      {
        "name": "allahabad",
        "latitude": 25.45,
        "longitude": 81.85
      },
      {
        "name": "allahdrug",
        "latitude": 17.966667,
        "longitude": 77.916667
      },
      {
        "name": "allahdurg",
        "latitude": 17.966667,
        "longitude": 77.916667
      },
      {
        "name": "allahdurug",
        "latitude": 17.966667,
        "longitude": 77.916667
      },
      {
        "name": "allahganj",
        "latitude": 27.55,
        "longitude": 79.683333
      },
      {
        "name": "allahpur",
        "latitude": 17.214167,
        "longitude": 78.830833
      },
      {
        "name": "alland",
        "latitude": 17.566667,
        "longitude": 76.566667
      },
      {
        "name": "allapalli",
        "latitude": 19.416667,
        "longitude": 80.066667
      },
      {
        "name": "alleppey",
        "latitude": 9.494167,
        "longitude": 76.3275
      },
      {
        "name": "alleppi",
        "latitude": 9.494167,
        "longitude": 76.3275
      },
      {
        "name": "allinagaram",
        "latitude": 10.033333,
        "longitude": 77.5
      },
      {
        "name": "alliyabad",
        "latitude": 12.633333,
        "longitude": 79.233333
      },
      {
        "name": "allur",
        "latitude": 14.683333,
        "longitude": 80.066667
      },
      {
        "name": "alluru",
        "latitude": 14.683333,
        "longitude": 80.066667
      },
      {
        "name": "almai",
        "latitude": 32.55,
        "longitude": 76.383333
      },
      {
        "name": "almaipet",
        "latitude": 17.776389,
        "longitude": 78.094167
      },
      {
        "name": "almashpur",
        "latitude": 22.181389,
        "longitude": 88.381389
      },
      {
        "name": "almati",
        "latitude": 16.35,
        "longitude": 75.9
      },
      {
        "name": "almatti",
        "latitude": 16.35,
        "longitude": 75.9
      },
      {
        "name": "almel",
        "latitude": 17.1,
        "longitude": 76.216667
      },
      {
        "name": "almora",
        "latitude": 29.616667,
        "longitude": 79.666667
      },
      {
        "name": "alnavar",
        "latitude": 15.433333,
        "longitude": 74.733333
      },
      {
        "name": "alniawas",
        "latitude": 26.516667,
        "longitude": 74.316667
      },
      {
        "name": "alod",
        "latitude": 25.545833,
        "longitude": 75.588889
      },
      {
        "name": "alolda",
        "latitude": 21.416667,
        "longitude": 71.483333
      },
      {
        "name": "along",
        "latitude": 28.166667,
        "longitude": 94.766667
      },
      {
        "name": "alonung",
        "latitude": 28.383333,
        "longitude": 95.55
      },
      {
        "name": "alora",
        "latitude": 17.466667,
        "longitude": 73.566667
      },
      {
        "name": "alorigarwara",
        "latitude": 24.783333,
        "longitude": 75.183333
      },
      {
        "name": "alorna",
        "latitude": 15.7,
        "longitude": 73.9
      },
      {
        "name": "alot",
        "latitude": 23.766667,
        "longitude": 75.55
      },
      {
        "name": "alpathar",
        "latitude": 33.988889,
        "longitude": 74.327778
      },
      {
        "name": "alphanagar",
        "latitude": 25.280556,
        "longitude": 75.713889
      },
      {
        "name": "alsindhi",
        "latitude": 31.3,
        "longitude": 77.133333
      },
      {
        "name": "alsisar",
        "latitude": 28.316667,
        "longitude": 75.283333
      },
      {
        "name": "alta",
        "latitude": 16.766667,
        "longitude": 74.4
      },
      {
        "name": "alturti",
        "latitude": 14.45,
        "longitude": 79.683333
      },
      {
        "name": "alu",
        "latitude": 23.05,
        "longitude": 73.816667
      },
      {
        "name": "aluda",
        "latitude": 26.8,
        "longitude": 76.383333
      },
      {
        "name": "aluna miana",
        "latitude": 30.677778,
        "longitude": 76.057778
      },
      {
        "name": "aluna palla",
        "latitude": 30.679167,
        "longitude": 76.045833
      },
      {
        "name": "aluna tola",
        "latitude": 30.675833,
        "longitude": 76.068611
      },
      {
        "name": "alu pahar",
        "latitude": 22.5,
        "longitude": 84.25
      },
      {
        "name": "alupura",
        "latitude": 34.065278,
        "longitude": 74.675
      },
      {
        "name": "alur",
        "latitude": 12.983333,
        "longitude": 75.983333
      },
      {
        "name": "aluru",
        "latitude": 15.5,
        "longitude": 80.133333
      },
      {
        "name": "aluva",
        "latitude": 10.109167,
        "longitude": 76.364444
      },
      {
        "name": "alvar tirunagari",
        "latitude": 8.6,
        "longitude": 77.95
      },
      {
        "name": "alvurkurchi",
        "latitude": 8.766667,
        "longitude": 77.416667
      },
      {
        "name": "alwar",
        "latitude": 27.566667,
        "longitude": 76.6
      },
      {
        "name": "alwar city",
        "latitude": 27.566667,
        "longitude": 76.6
      },
      {
        "name": "alwarkurichchi",
        "latitude": 8.766667,
        "longitude": 77.416667
      },
      {
        "name": "alwarpet",
        "latitude": 13.036389,
        "longitude": 80.257778
      },
      {
        "name": "alwar tirunagari",
        "latitude": 8.6,
        "longitude": 77.95
      },
      {
        "name": "alwas",
        "latitude": 32.966667,
        "longitude": 76.166667
      },
      {
        "name": "alwaye",
        "latitude": 10.109167,
        "longitude": 76.364444
      },
      {
        "name": "ama",
        "latitude": 26.883333,
        "longitude": 82.666667
      },
      {
        "name": "amabera",
        "latitude": 20.066667,
        "longitude": 81.316667
      },
      {
        "name": "amadavad",
        "latitude": 23.033333,
        "longitude": 72.616667
      },
      {
        "name": "amagaon",
        "latitude": 22.866667,
        "longitude": 79.066667
      },
      {
        "name": "amagohan",
        "latitude": 22.55,
        "longitude": 81.933333
      },
      {
        "name": "amakona",
        "latitude": 23.1,
        "longitude": 83.966667
      },
      {
        "name": "amal",
        "latitude": 20.266667,
        "longitude": 72.966667
      },
      {
        "name": "amalapuram",
        "latitude": 16.583333,
        "longitude": 82.016667
      },
      {
        "name": "amalda",
        "latitude": 25.483333,
        "longitude": 75.15
      },
      {
        "name": "amaldu",
        "latitude": 29.926944,
        "longitude": 78.53
      },
      {
        "name": "amalner",
        "latitude": 21.05,
        "longitude": 75.066667
      },
      {
        "name": "amalpada",
        "latitude": 21.25,
        "longitude": 73.683333
      },
      {
        "name": "amamora",
        "latitude": 20.437778,
        "longitude": 82.411111
      },
      {
        "name": "amanambakkam",
        "latitude": 13.216667,
        "longitude": 80.033333
      },
      {
        "name": "amanatgarh",
        "latitude": 30.091389,
        "longitude": 77.806389
      },
      {
        "name": "amancherla",
        "latitude": 14.4,
        "longitude": 79.866667
      },
      {
        "name": "amangal",
        "latitude": 16.85,
        "longitude": 78.533333
      },
      {
        "name": "amanganj",
        "latitude": 24.433333,
        "longitude": 80.033333
      },
      {
        "name": "amaniganj",
        "latitude": 26.666667,
        "longitude": 81.783333
      },
      {
        "name": "amanpur",
        "latitude": 27.716667,
        "longitude": 78.75
      },
      {
        "name": "amaos",
        "latitude": 25.7,
        "longitude": 73.333333
      },
      {
        "name": "amarambedu",
        "latitude": 12.964722,
        "longitude": 80.013056
      },
      {
        "name": "amarapuram",
        "latitude": 14.133333,
        "longitude": 76.983333
      },
      {
        "name": "amarapur",
        "latitude": 19.283333,
        "longitude": 75.183333
      },
      {
        "name": "amaravathi",
        "latitude": 10.016667,
        "longitude": 78.783333
      },
      {
        "name": "amaravati",
        "latitude": 10.016667,
        "longitude": 78.783333
      },
      {
        "name": "amarchinta",
        "latitude": 16.366667,
        "longitude": 77.783333
      },
      {
        "name": "amarda",
        "latitude": 21.783333,
        "longitude": 87.133333
      },
      {
        "name": "amargad",
        "latitude": 34.258333,
        "longitude": 74.461111
      },
      {
        "name": "amargarh",
        "latitude": 25.683333,
        "longitude": 78.916667
      },
      {
        "name": "amargol",
        "latitude": 15.416667,
        "longitude": 75.116667
      },
      {
        "name": "amaria",
        "latitude": 28.75,
        "longitude": 79.716667
      },
      {
        "name": "amarkantak",
        "latitude": 22.666667,
        "longitude": 81.75
      },
      {
        "name": "amarli gala",
        "latitude": 33.225,
        "longitude": 74.083333
      },
      {
        "name": "amarnath",
        "latitude": 19.2,
        "longitude": 73.166667
      },
      {
        "name": "amarpatan",
        "latitude": 24.316667,
        "longitude": 80.983333
      },
      {
        "name": "amarpura",
        "latitude": 25.620833,
        "longitude": 75.598611
      },
      {
        "name": "amarpur",
        "latitude": 26.1,
        "longitude": 84.083333
      },
      {
        "name": "amarpur jorasi",
        "latitude": 28.015278,
        "longitude": 76.061944
      },
      {
        "name": "amarsar",
        "latitude": 27.366667,
        "longitude": 75.833333
      },
      {
        "name": "amarwa",
        "latitude": 26.666667,
        "longitude": 76.483333
      },
      {
        "name": "amarwara",
        "latitude": 22.3,
        "longitude": 79.166667
      },
      {
        "name": "amas",
        "latitude": 24.633333,
        "longitude": 84.65
      },
      {
        "name": "amatkur",
        "latitude": 16.333333,
        "longitude": 77.816667
      },
      {
        "name": "amatulla",
        "latitude": 26.95,
        "longitude": 92.15
      },
      {
        "name": "amauli",
        "latitude": 26.016667,
        "longitude": 80.316667
      },
      {
        "name": "amawan",
        "latitude": 25.066667,
        "longitude": 83.433333
      },
      {
        "name": "amayan",
        "latitude": 26.333333,
        "longitude": 78.766389
      },
      {
        "name": "amba",
        "latitude": 24.833333,
        "longitude": 75.3
      },
      {
        "name": "ambabari",
        "latitude": 20.166667,
        "longitude": 73.15
      },
      {
        "name": "ambabarwa",
        "latitude": 21.230278,
        "longitude": 76.647222
      },
      {
        "name": "ambabhona",
        "latitude": 21.583333,
        "longitude": 83.466667
      },
      {
        "name": "ambad",
        "latitude": 19.616667,
        "longitude": 75.8
      },
      {
        "name": "ambagai",
        "latitude": 33.075,
        "longitude": 74.186111
      },
      {
        "name": "ambag",
        "latitude": 30.4575,
        "longitude": 77.939167
      },
      {
        "name": "ambagarattur",
        "latitude": 10.95,
        "longitude": 79.716667
      },
      {
        "name": "ambagarh chauki",
        "latitude": 20.783333,
        "longitude": 80.716667
      },
      {
        "name": "ambagarh-chowki",
        "latitude": 20.783333,
        "longitude": 80.716667
      },
      {
        "name": "ambah",
        "latitude": 26.7075,
        "longitude": 78.226111
      },
      {
        "name": "ambahta",
        "latitude": 29.85,
        "longitude": 77.333333
      },
      {
        "name": "ambahta rindan",
        "latitude": 29.563611,
        "longitude": 77.285833
      },
      {
        "name": "ambahta sheikha",
        "latitude": 29.65,
        "longitude": 77.616667
      },
      {
        "name": "ambajhari",
        "latitude": 21.05,
        "longitude": 78.833333
      },
      {
        "name": "ambajiri",
        "latitude": 18.883333,
        "longitude": 84.033333
      },
      {
        "name": "ambajogai",
        "latitude": 18.733333,
        "longitude": 76.383333
      },
      {
        "name": "ambala",
        "latitude": 30.898889,
        "longitude": 76.964722
      },
      {
        "name": "ambalapulai",
        "latitude": 9.4,
        "longitude": 76.366667
      },
      {
        "name": "ambalapuzha",
        "latitude": 9.4,
        "longitude": 76.366667
      },
      {
        "name": "ambalasamudram",
        "latitude": 10.35,
        "longitude": 79.266667
      },
      {
        "name": "ambaldi",
        "latitude": 21.183333,
        "longitude": 71.333333
      },
      {
        "name": "ambalga",
        "latitude": 17.616667,
        "longitude": 76.9
      },
      {
        "name": "ambalga buzurg",
        "latitude": 18.15,
        "longitude": 76.866667
      },
      {
        "name": "ambaligolla",
        "latitude": 14.2,
        "longitude": 75.283333
      },
      {
        "name": "ambaltek",
        "latitude": 18.766667,
        "longitude": 76.566667
      },
      {
        "name": "amb",
        "latitude": 32.869444,
        "longitude": 74.784722
      },
      {
        "name": "ambapani",
        "latitude": 24.266667,
        "longitude": 74.416667
      },
      {
        "name": "ambapani chauki",
        "latitude": 21.516667,
        "longitude": 75.483333
      },
      {
        "name": "ambara",
        "latitude": 28.25,
        "longitude": 80.566667
      },
      {
        "name": "ambara khas",
        "latitude": 21.733333,
        "longitude": 78.566667
      },
      {
        "name": "ambaran",
        "latitude": 32.909722,
        "longitude": 74.766667
      },
      {
        "name": "ambargaon",
        "latitude": 20.2,
        "longitude": 72.75
      },
      {
        "name": "ambaria",
        "latitude": 22.228611,
        "longitude": 88.044167
      },
      {
        "name": "ambari",
        "latitude": 30.497778,
        "longitude": 77.817222
      },
      {
        "name": "ambarim",
        "latitude": 15.55,
        "longitude": 73.85
      },
      {
        "name": "ambarnath",
        "latitude": 19.2,
        "longitude": 73.166667
      },
      {
        "name": "ambarpet",
        "latitude": 17.394722,
        "longitude": 78.5175
      },
      {
        "name": "ambarpet kalan",
        "latitude": 17.318889,
        "longitude": 78.638056
      },
      {
        "name": "ambasa",
        "latitude": 23.917222,
        "longitude": 91.847222
      },
      {
        "name": "ambasamudram",
        "latitude": 8.7,
        "longitude": 77.466667
      },
      {
        "name": "ambassamudram",
        "latitude": 8.7,
        "longitude": 77.466667
      },
      {
        "name": "ambata",
        "latitude": 30.378333,
        "longitude": 76.780833
      },
      {
        "name": "ambatturai",
        "latitude": 10.266667,
        "longitude": 77.933333
      },
      {
        "name": "ambattur",
        "latitude": 13.076667,
        "longitude": 80.088611
      },
      {
        "name": "ambaula",
        "latitude": 22.871389,
        "longitude": 88.662778
      },
      {
        "name": "ambaulim",
        "latitude": 15.2,
        "longitude": 74.05
      },
      {
        "name": "ambavli",
        "latitude": 17.716667,
        "longitude": 73.55
      },
      {
        "name": "ambavna",
        "latitude": 18.616667,
        "longitude": 73.366667
      },
      {
        "name": "ambeachi-gavol",
        "latitude": 15.633333,
        "longitude": 74.183333
      },
      {
        "name": "ambe",
        "latitude": 18.733333,
        "longitude": 76.383333
      },
      {
        "name": "ambedem",
        "latitude": 15.55,
        "longitude": 74.166667
      },
      {
        "name": "ambegaon",
        "latitude": 19.116667,
        "longitude": 73.733333
      },
      {
        "name": "ambehta sheikha",
        "latitude": 29.65,
        "longitude": 77.616667
      },
      {
        "name": "ambejogai",
        "latitude": 18.733333,
        "longitude": 76.383333
      },
      {
        "name": "ambe kas",
        "latitude": 32.988889,
        "longitude": 74.377778
      },
      {
        "name": "ambelim",
        "latitude": 15.166667,
        "longitude": 73.966667
      },
      {
        "name": "ambepur",
        "latitude": 18.584722,
        "longitude": 72.947778
      },
      {
        "name": "amber",
        "latitude": 26.983333,
        "longitude": 75.866667
      },
      {
        "name": "ambewari",
        "latitude": 19.833333,
        "longitude": 75.133333
      },
      {
        "name": "ambgaon",
        "latitude": 20.65,
        "longitude": 79.95
      },
      {
        "name": "ambhai",
        "latitude": 20.466667,
        "longitude": 75.566667
      },
      {
        "name": "ambheti",
        "latitude": 20.383333,
        "longitude": 73.016667
      },
      {
        "name": "ambi danna",
        "latitude": 32.979167,
        "longitude": 74.6375
      },
      {
        "name": "ambikanagar",
        "latitude": 22.95,
        "longitude": 86.766667
      },
      {
        "name": "ambikapur",
        "latitude": 23.116667,
        "longitude": 83.2
      },
      {
        "name": "ambiwala",
        "latitude": 30.322222,
        "longitude": 77.936667
      },
      {
        "name": "ambli",
        "latitude": 18.504722,
        "longitude": 72.963333
      },
      {
        "name": "amboa",
        "latitude": 30.55,
        "longitude": 77.716667
      },
      {
        "name": "ambodala",
        "latitude": 19.833333,
        "longitude": 83.483333
      },
      {
        "name": "amboli",
        "latitude": 17.716667,
        "longitude": 73.55
      },
      {
        "name": "ambora",
        "latitude": 15.316667,
        "longitude": 73.983333
      },
      {
        "name": "ambur",
        "latitude": 12.783333,
        "longitude": 78.7
      },
      {
        "name": "ambwala",
        "latitude": 30.132778,
        "longitude": 77.764722
      },
      {
        "name": "amda",
        "latitude": 22.75,
        "longitude": 85.8
      },
      {
        "name": "amda kadal",
        "latitude": 34.115278,
        "longitude": 74.816667
      },
      {
        "name": "amdanga",
        "latitude": 22.811944,
        "longitude": 88.515
      },
      {
        "name": "amdapur",
        "latitude": 19.683333,
        "longitude": 77.916667
      },
      {
        "name": "amdara",
        "latitude": 24.116667,
        "longitude": 80.583333
      },
      {
        "name": "amdhala",
        "latitude": 22.291111,
        "longitude": 88.610833
      },
      {
        "name": "amdhi",
        "latitude": 23.85,
        "longitude": 81.45
      },
      {
        "name": "amdi",
        "latitude": 23.85,
        "longitude": 81.45
      },
      {
        "name": "ameh",
        "latitude": 29.963611,
        "longitude": 78.709167
      },
      {
        "name": "amer",
        "latitude": 26.983333,
        "longitude": 75.866667
      },
      {
        "name": "ameta",
        "latitude": 24.416667,
        "longitude": 76.416667
      },
      {
        "name": "amet",
        "latitude": 25.3,
        "longitude": 73.933333
      },
      {
        "name": "amethi",
        "latitude": 28.016667,
        "longitude": 81.05
      },
      {
        "name": "amgachia",
        "latitude": 22.409444,
        "longitude": 88.304722
      },
      {
        "name": "amgaon",
        "latitude": 20.916667,
        "longitude": 80.766667
      },
      {
        "name": "amgawan",
        "latitude": 23.083333,
        "longitude": 80.45
      },
      {
        "name": "amguri",
        "latitude": 26.8,
        "longitude": 94.533333
      },
      {
        "name": "amguri bazar",
        "latitude": 26.666667,
        "longitude": 90.6
      },
      {
        "name": "amhara",
        "latitude": 26.283333,
        "longitude": 87.316667
      },
      {
        "name": "amhat",
        "latitude": 25.766667,
        "longitude": 83.8
      },
      {
        "name": "amili",
        "latitude": 28.433333,
        "longitude": 95.866667
      },
      {
        "name": "amin",
        "latitude": 29.916667,
        "longitude": 76.85
      },
      {
        "name": "aminbhavi",
        "latitude": 15.55,
        "longitude": 75.066667
      },
      {
        "name": "amingad",
        "latitude": 16.066667,
        "longitude": 75.95
      },
      {
        "name": "amingaon",
        "latitude": 26.184722,
        "longitude": 91.669167
      },
      {
        "name": "amingarh",
        "latitude": 16.066667,
        "longitude": 75.95
      },
      {
        "name": "aminjikarai",
        "latitude": 13.073889,
        "longitude": 80.224444
      },
      {
        "name": "amira kadal",
        "latitude": 34.069444,
        "longitude": 74.804167
      },
      {
        "name": "amir mahal",
        "latitude": 13.053889,
        "longitude": 80.2675
      },
      {
        "name": "amirpet",
        "latitude": 17.149167,
        "longitude": 78.340833
      },
      {
        "name": "amjapur",
        "latitude": 17.302778,
        "longitude": 78.588611
      },
      {
        "name": "amjhera",
        "latitude": 22.55,
        "longitude": 75.1
      },
      {
        "name": "amjhor",
        "latitude": 23.533333,
        "longitude": 81.4
      },
      {
        "name": "amkatla",
        "latitude": 29.811389,
        "longitude": 78.709722
      },
      {
        "name": "amkhera",
        "latitude": 23.3,
        "longitude": 78.033333
      },
      {
        "name": "amkholi",
        "latitude": 29.844444,
        "longitude": 78.596389
      },
      {
        "name": "amkhuta",
        "latitude": 21.4,
        "longitude": 73.216667
      },
      {
        "name": "amkhut",
        "latitude": 22.45,
        "longitude": 74.283333
      },
      {
        "name": "amla",
        "latitude": 29.527778,
        "longitude": 77.359722
      },
      {
        "name": "amlagora",
        "latitude": 22.833333,
        "longitude": 87.333333
      },
      {
        "name": "amlaha",
        "latitude": 23.116667,
        "longitude": 76.9
      },
      {
        "name": "amlakhi",
        "latitude": 25.966667,
        "longitude": 93.5
      },
      {
        "name": "amlataria",
        "latitude": 22.316667,
        "longitude": 87.333333
      },
      {
        "name": "amlesa",
        "latitude": 29.796667,
        "longitude": 78.701111
      },
      {
        "name": "amlia",
        "latitude": 24.05,
        "longitude": 82.416667
      },
      {
        "name": "amli",
        "latitude": 24.833333,
        "longitude": 73.116667
      },
      {
        "name": "amlipadar",
        "latitude": 19.933333,
        "longitude": 82.433333
      },
      {
        "name": "amliyara",
        "latitude": 23.216667,
        "longitude": 73.033333
      },
      {
        "name": "amloda",
        "latitude": 27.333333,
        "longitude": 76.066667
      },
      {
        "name": "amloh",
        "latitude": 30.608056,
        "longitude": 76.230278
      },
      {
        "name": "ammalapadu",
        "latitude": 18.65,
        "longitude": 84.4
      },
      {
        "name": "ammanabrole",
        "latitude": 15.583333,
        "longitude": 80.15
      },
      {
        "name": "ammanabrolu",
        "latitude": 15.583333,
        "longitude": 80.15
      },
      {
        "name": "ammani chattram",
        "latitude": 10.2,
        "longitude": 79.266667
      },
      {
        "name": "ammanitchatram",
        "latitude": 10.2,
        "longitude": 79.266667
      },
      {
        "name": "ammapatam",
        "latitude": 10.016667,
        "longitude": 79.233333
      },
      {
        "name": "ammapatnam",
        "latitude": 10.016667,
        "longitude": 79.233333
      },
      {
        "name": "ammapattinam",
        "latitude": 10.016667,
        "longitude": 79.233333
      },
      {
        "name": "ammapet",
        "latitude": 10.8,
        "longitude": 79.333333
      },
      {
        "name": "ammapettai",
        "latitude": 10.8,
        "longitude": 79.333333
      },
      {
        "name": "ammapur",
        "latitude": 16.433333,
        "longitude": 77.866667
      },
      {
        "name": "ammatti",
        "latitude": 12.25,
        "longitude": 75.85
      },
      {
        "name": "ammavaripalem",
        "latitude": 14.466667,
        "longitude": 79.716667
      },
      {
        "name": "ammenalli",
        "latitude": 14.55,
        "longitude": 74.716667
      },
      {
        "name": "amnari",
        "latitude": 24.066667,
        "longitude": 85.6
      },
      {
        "name": "amoda",
        "latitude": 23.6,
        "longitude": 79.95
      },
      {
        "name": "amod",
        "latitude": 21.983333,
        "longitude": 72.9
      },
      {
        "name": "amoi patha",
        "latitude": 25.516667,
        "longitude": 77.95
      },
      {
        "name": "amokhor",
        "latitude": 33.022222,
        "longitude": 74.391667
      },
      {
        "name": "amola",
        "latitude": 29.867222,
        "longitude": 78.523611
      },
      {
        "name": "amona",
        "latitude": 23.15,
        "longitude": 76.25
      },
      {
        "name": "amour",
        "latitude": 25.966667,
        "longitude": 87.716667
      },
      {
        "name": "ampadar",
        "latitude": 19.55,
        "longitude": 83.116667
      },
      {
        "name": "ampahta uakubpur",
        "latitude": 29.646667,
        "longitude": 77.421667
      },
      {
        "name": "ampalam",
        "latitude": 18.366667,
        "longitude": 84.133333
      },
      {
        "name": "ampani",
        "latitude": 19.583333,
        "longitude": 82.633333
      },
      {
        "name": "ampi bazar",
        "latitude": 23.65,
        "longitude": 91.624722
      },
      {
        "name": "ampultun",
        "latitude": 34.216667,
        "longitude": 76.6
      },
      {
        "name": "amra",
        "latitude": 25.3,
        "longitude": 83.433333
      },
      {
        "name": "amrabad",
        "latitude": 16.383333,
        "longitude": 78.833333
      },
      {
        "name": "amran",
        "latitude": 22.816667,
        "longitude": 70.566667
      },
      {
        "name": "amraoti",
        "latitude": 21.65,
        "longitude": 78.183333
      },
      {
        "name": "amrapara",
        "latitude": 24.533333,
        "longitude": 87.566667
      },
      {
        "name": "amrapur",
        "latitude": 21.716667,
        "longitude": 70.05
      },
      {
        "name": "amrasa",
        "latitude": 28.775278,
        "longitude": 74.723056
      },
      {
        "name": "amratala",
        "latitude": 22.241667,
        "longitude": 88.663889
      },
      {
        "name": "amrati",
        "latitude": 19.583333,
        "longitude": 81.95
      },
      {
        "name": "amratiya",
        "latitude": 25.5875,
        "longitude": 75.509722
      },
      {
        "name": "amraud",
        "latitude": 24.616667,
        "longitude": 77.85
      },
      {
        "name": "amravati",
        "latitude": 20.933333,
        "longitude": 77.75
      },
      {
        "name": "amreli",
        "latitude": 21.616667,
        "longitude": 71.233333
      },
      {
        "name": "amreswar",
        "latitude": 22.469722,
        "longitude": 88.559167
      },
      {
        "name": "amria",
        "latitude": 22.271667,
        "longitude": 88.191944
      },
      {
        "name": "amring",
        "latitude": 25.733333,
        "longitude": 92.833333
      },
      {
        "name": "amritpur",
        "latitude": 27.55,
        "longitude": 79.6
      },
      {
        "name": "amritsar",
        "latitude": 31.633056,
        "longitude": 74.865556
      },
      {
        "name": "amrod",
        "latitude": 25.116667,
        "longitude": 77.366667
      },
      {
        "name": "amroha",
        "latitude": 28.916667,
        "longitude": 78.466667
      },
      {
        "name": "amroli",
        "latitude": 21.3,
        "longitude": 72.85
      },
      {
        "name": "amrui",
        "latitude": 34.35,
        "longitude": 73.816667
      },
      {
        "name": "amrutur",
        "latitude": 12.916111,
        "longitude": 76.933056
      },
      {
        "name": "amsanpalli",
        "latitude": 17.941389,
        "longitude": 78.24
      },
      {
        "name": "amsaur",
        "latitude": 29.786111,
        "longitude": 78.586389
      },
      {
        "name": "amta",
        "latitude": 22.58,
        "longitude": 88.008333
      },
      {
        "name": "amtala",
        "latitude": 22.371389,
        "longitude": 88.294444
      },
      {
        "name": "amtika",
        "latitude": 26.783333,
        "longitude": 90.533333
      },
      {
        "name": "amtun",
        "latitude": 25.247222,
        "longitude": 75.646111
      },
      {
        "name": "amudalavalasa",
        "latitude": 18.416667,
        "longitude": 83.9
      },
      {
        "name": "amudur",
        "latitude": 13.166111,
        "longitude": 80.028611
      },
      {
        "name": "amur",
        "latitude": 18.8,
        "longitude": 78.283333
      },
      {
        "name": "amurtur",
        "latitude": 12.916111,
        "longitude": 76.933056
      },
      {
        "name": "amwala tarla",
        "latitude": 30.373889,
        "longitude": 77.997222
      },
      {
        "name": "amwa majhar",
        "latitude": 26.716667,
        "longitude": 84.583333
      },
      {
        "name": "anadra",
        "latitude": 24.633333,
        "longitude": 72.65
      },
      {
        "name": "anagodu",
        "latitude": 14.4,
        "longitude": 76.05
      },
      {
        "name": "anah",
        "latitude": 33.155556,
        "longitude": 74.398611
      },
      {
        "name": "anaimalai",
        "latitude": 10.583333,
        "longitude": 76.933333
      },
      {
        "name": "anaimalais",
        "latitude": 10.583333,
        "longitude": 76.933333
      },
      {
        "name": "anaji",
        "latitude": 14.483333,
        "longitude": 76.1
      },
      {
        "name": "anajpur",
        "latitude": 17.270278,
        "longitude": 78.694167
      },
      {
        "name": "anakapalle",
        "latitude": 17.683333,
        "longitude": 83.016667
      },
      {
        "name": "anakaputtur",
        "latitude": 12.982778,
        "longitude": 80.126389
      },
      {
        "name": "anamalai",
        "latitude": 10.583333,
        "longitude": 76.933333
      },
      {
        "name": "anamalainagar",
        "latitude": 11.4,
        "longitude": 79.733333
      },
      {
        "name": "anamasamudrampeta",
        "latitude": 14.7,
        "longitude": 79.683333
      },
      {
        "name": "anand",
        "latitude": 22.566667,
        "longitude": 72.933333
      },
      {
        "name": "anandapuram",
        "latitude": 14.083333,
        "longitude": 75.2
      },
      {
        "name": "anandgarh",
        "latitude": 28.783333,
        "longitude": 72.966667
      },
      {
        "name": "anandnagar",
        "latitude": 27.1,
        "longitude": 83.283333
      },
      {
        "name": "anandpur",
        "latitude": 22.45,
        "longitude": 85.166667
      },
      {
        "name": "anandpur sahib",
        "latitude": 31.25,
        "longitude": 76.5
      },
      {
        "name": "anandwasi",
        "latitude": 28.270833,
        "longitude": 74.520556
      },
      {
        "name": "anantagiripalli",
        "latitude": 17.998611,
        "longitude": 78.750833
      },
      {
        "name": "anantamadugu",
        "latitude": 14.133333,
        "longitude": 79.716667
      },
      {
        "name": "anantapuramu",
        "latitude": 14.683333,
        "longitude": 77.6
      },
      {
        "name": "anantapur",
        "latitude": 22.105,
        "longitude": 88.114167
      },
      {
        "name": "anantaram",
        "latitude": 17.515556,
        "longitude": 78.845556
      },
      {
        "name": "anantasagaram",
        "latitude": 14.583333,
        "longitude": 79.416667
      },
      {
        "name": "anantasagram",
        "latitude": 14.583333,
        "longitude": 79.416667
      },
      {
        "name": "anantganj",
        "latitude": 25.565,
        "longitude": 75.611944
      },
      {
        "name": "anantnag",
        "latitude": 33.733333,
        "longitude": 75.15
      },
      {
        "name": "anant peth",
        "latitude": 25.966667,
        "longitude": 78.266667
      },
      {
        "name": "anantpur",
        "latitude": 23.516667,
        "longitude": 79.116667
      },
      {
        "name": "anantsagar",
        "latitude": 17.685556,
        "longitude": 78.621944
      },
      {
        "name": "ananwan",
        "latitude": 34.35,
        "longitude": 74.319444
      },
      {
        "name": "anarnath",
        "latitude": 33.802778,
        "longitude": 74.261111
      },
      {
        "name": "anaskura",
        "latitude": 16.783333,
        "longitude": 73.8
      },
      {
        "name": "anati",
        "latitude": 34.569444,
        "longitude": 76.2125
      },
      {
        "name": "anaud",
        "latitude": 22.566667,
        "longitude": 72.933333
      },
      {
        "name": "anavatti",
        "latitude": 14.566667,
        "longitude": 75.166667
      },
      {
        "name": "anawal",
        "latitude": 20.833333,
        "longitude": 73.266667
      },
      {
        "name": "anchal",
        "latitude": 8.9,
        "longitude": 76.9
      },
      {
        "name": "anchar",
        "latitude": 34.141667,
        "longitude": 74.797222
      },
      {
        "name": "anchetti",
        "latitude": 12.35,
        "longitude": 77.716667
      },
      {
        "name": "anda",
        "latitude": 21.066667,
        "longitude": 81.283333
      },
      {
        "name": "andal",
        "latitude": 23.6,
        "longitude": 87.2
      },
      {
        "name": "andal junction",
        "latitude": 23.6,
        "longitude": 87.2
      },
      {
        "name": "andanda",
        "latitude": 19.016667,
        "longitude": 84.383333
      },
      {
        "name": "andarbug",
        "latitude": 34.45,
        "longitude": 74.452778
      },
      {
        "name": "andargam",
        "latitude": 34.205556,
        "longitude": 74.526389
      },
      {
        "name": "andarhom",
        "latitude": 34.5,
        "longitude": 74.297222
      },
      {
        "name": "andarsul",
        "latitude": 20.0,
        "longitude": 74.566667
      },
      {
        "name": "andarwan",
        "latitude": 34.308333,
        "longitude": 74.811111
      },
      {
        "name": "andaura",
        "latitude": 32.15,
        "longitude": 75.683333
      },
      {
        "name": "andevanahalli",
        "latitude": 12.466667,
        "longitude": 77.766667
      },
      {
        "name": "andhari",
        "latitude": 20.266667,
        "longitude": 75.483333
      },
      {
        "name": "andharkaneh",
        "latitude": 22.233333,
        "longitude": 74.083333
      },
      {
        "name": "andharkotha",
        "latitude": 24.05,
        "longitude": 88.7
      },
      {
        "name": "andharmanik",
        "latitude": 22.373889,
        "longitude": 88.357222
      },
      {
        "name": "andher",
        "latitude": 25.324722,
        "longitude": 75.6375
      },
      {
        "name": "andheri",
        "latitude": 19.116667,
        "longitude": 72.833333
      },
      {
        "name": "andhgarh",
        "latitude": 29.919722,
        "longitude": 77.046389
      },
      {
        "name": "andhori",
        "latitude": 18.766667,
        "longitude": 76.833333
      },
      {
        "name": "andhra tharhi",
        "latitude": 26.383333,
        "longitude": 86.333333
      },
      {
        "name": "andhra thari",
        "latitude": 26.383333,
        "longitude": 86.333333
      },
      {
        "name": "andimadam",
        "latitude": 11.333333,
        "longitude": 79.383333
      },
      {
        "name": "andimatam",
        "latitude": 11.333333,
        "longitude": 79.383333
      },
      {
        "name": "andipor",
        "latitude": 22.716667,
        "longitude": 86.533333
      },
      {
        "name": "andippatti",
        "latitude": 9.983333,
        "longitude": 77.633333
      },
      {
        "name": "andipur",
        "latitude": 22.716667,
        "longitude": 86.533333
      },
      {
        "name": "andiyur",
        "latitude": 11.583333,
        "longitude": 77.6
      },
      {
        "name": "ando",
        "latitude": 34.544444,
        "longitude": 76.147222
      },
      {
        "name": "andola",
        "latitude": 16.95,
        "longitude": 76.833333
      },
      {
        "name": "andol",
        "latitude": 17.813056,
        "longitude": 78.077222
      },
      {
        "name": "andori",
        "latitude": 20.533333,
        "longitude": 78.5
      },
      {
        "name": "andra",
        "latitude": 18.35,
        "longitude": 83.2
      },
      {
        "name": "andrail",
        "latitude": 31.174444,
        "longitude": 77.096944
      },
      {
        "name": "andrut",
        "latitude": 33.243056,
        "longitude": 74.186111
      },
      {
        "name": "andura",
        "latitude": 20.883333,
        "longitude": 76.85
      },
      {
        "name": "andur",
        "latitude": 17.9,
        "longitude": 77.416667
      },
      {
        "name": "andurkonam",
        "latitude": 8.6,
        "longitude": 76.883333
      },
      {
        "name": "ane",
        "latitude": 19.166667,
        "longitude": 74.233333
      },
      {
        "name": "anechaukur",
        "latitude": 12.25,
        "longitude": 76.083333
      },
      {
        "name": "anehosur",
        "latitude": 16.15,
        "longitude": 76.383333
      },
      {
        "name": "anekal",
        "latitude": 12.7,
        "longitude": 77.7
      },
      {
        "name": "anelih",
        "latitude": 28.516667,
        "longitude": 95.783333
      },
      {
        "name": "anelin",
        "latitude": 28.516667,
        "longitude": 95.783333
      },
      {
        "name": "angadippuram",
        "latitude": 10.966667,
        "longitude": 76.216667
      },
      {
        "name": "angadipuram",
        "latitude": 10.966667,
        "longitude": 76.216667
      },
      {
        "name": "angadu",
        "latitude": 13.224444,
        "longitude": 80.183611
      },
      {
        "name": "angai",
        "latitude": 26.6,
        "longitude": 77.466667
      },
      {
        "name": "angaikor",
        "latitude": 34.522222,
        "longitude": 75.183333
      },
      {
        "name": "angamali",
        "latitude": 10.2,
        "longitude": 76.4
      },
      {
        "name": "angamally",
        "latitude": 10.2,
        "longitude": 76.4
      },
      {
        "name": "angami",
        "latitude": 25.616667,
        "longitude": 94.533333
      },
      {
        "name": "anganpathri",
        "latitude": 33.936111,
        "longitude": 74.316667
      },
      {
        "name": "angara",
        "latitude": 23.4,
        "longitude": 85.516667
      },
      {
        "name": "angar",
        "latitude": 17.9,
        "longitude": 75.566667
      },
      {
        "name": "angarle",
        "latitude": 17.851667,
        "longitude": 73.091667
      },
      {
        "name": "angatsi",
        "latitude": 28.316667,
        "longitude": 95.533333
      },
      {
        "name": "angdhar",
        "latitude": 23.95,
        "longitude": 75.616667
      },
      {
        "name": "anghad",
        "latitude": 22.383333,
        "longitude": 73.083333
      },
      {
        "name": "angnao",
        "latitude": 28.116667,
        "longitude": 72.783333
      },
      {
        "name": "angripet",
        "latitude": 17.903056,
        "longitude": 78.3725
      },
      {
        "name": "angul",
        "latitude": 20.85,
        "longitude": 85.1
      },
      {
        "name": "aniali",
        "latitude": 22.15,
        "longitude": 71.183333
      },
      {
        "name": "ani",
        "latitude": 31.433333,
        "longitude": 77.416667
      },
      {
        "name": "anikkaranchattram",
        "latitude": 11.333333,
        "longitude": 79.716667
      },
      {
        "name": "aniwas",
        "latitude": 33.261111,
        "longitude": 74.047222
      },
      {
        "name": "anjad",
        "latitude": 22.033333,
        "longitude": 75.05
      },
      {
        "name": "anjakpani",
        "latitude": 26.45,
        "longitude": 93.1
      },
      {
        "name": "anjala",
        "latitude": 21.1,
        "longitude": 75.75
      },
      {
        "name": "anjan",
        "latitude": 23.133333,
        "longitude": 84.483333
      },
      {
        "name": "anjanapura",
        "latitude": 14.166667,
        "longitude": 75.366667
      },
      {
        "name": "anjangaon",
        "latitude": 21.966667,
        "longitude": 75.966667
      },
      {
        "name": "anjangaon bari",
        "latitude": 20.816667,
        "longitude": 77.783333
      },
      {
        "name": "anjania",
        "latitude": 22.5,
        "longitude": 80.5
      },
      {
        "name": "anjanvel",
        "latitude": 17.55,
        "longitude": 73.15
      },
      {
        "name": "anjar",
        "latitude": 23.133333,
        "longitude": 70.016667
      },
      {
        "name": "anjarla",
        "latitude": 17.851667,
        "longitude": 73.091667
      },
      {
        "name": "anjarle",
        "latitude": 17.851667,
        "longitude": 73.091667
      },
      {
        "name": "anjengo",
        "latitude": 8.666667,
        "longitude": 76.766667
      },
      {
        "name": "anji",
        "latitude": 20.866667,
        "longitude": 78.533333
      },
      {
        "name": "anjih",
        "latitude": 20.866667,
        "longitude": 78.533333
      },
      {
        "name": "anjongo",
        "latitude": 8.666667,
        "longitude": 76.766667
      },
      {
        "name": "anjorpur",
        "latitude": 25.7,
        "longitude": 84.05
      },
      {
        "name": "anjuna",
        "latitude": 15.583333,
        "longitude": 73.733333
      },
      {
        "name": "anjunem",
        "latitude": 15.616667,
        "longitude": 74.083333
      },
      {
        "name": "anjuriem",
        "latitude": 15.616667,
        "longitude": 74.083333
      },
      {
        "name": "ankalampadu",
        "latitude": 16.983333,
        "longitude": 81.166667
      },
      {
        "name": "ankalgi",
        "latitude": 16.033333,
        "longitude": 74.7
      },
      {
        "name": "ankasandra",
        "latitude": 13.545833,
        "longitude": 76.886667
      },
      {
        "name": "ankevalia",
        "latitude": 22.833333,
        "longitude": 71.45
      },
      {
        "name": "ankevalia mota",
        "latitude": 22.833333,
        "longitude": 71.45
      },
      {
        "name": "ankhawari",
        "latitude": 22.483333,
        "longitude": 78.833333
      },
      {
        "name": "ankisha",
        "latitude": 18.716667,
        "longitude": 80.133333
      },
      {
        "name": "ankla",
        "latitude": 17.05,
        "longitude": 75.033333
      },
      {
        "name": "anklachh",
        "latitude": 20.566667,
        "longitude": 73.266667
      },
      {
        "name": "ankleshwar",
        "latitude": 21.6,
        "longitude": 73.0
      },
      {
        "name": "anklesvar",
        "latitude": 21.6,
        "longitude": 73.0
      },
      {
        "name": "ankli",
        "latitude": 16.55,
        "longitude": 74.666667
      },
      {
        "name": "ankola",
        "latitude": 14.666667,
        "longitude": 74.3
      },
      {
        "name": "ankol",
        "latitude": 34.206944,
        "longitude": 74.633333
      },
      {
        "name": "ankraddipalli",
        "latitude": 17.562222,
        "longitude": 78.685556
      },
      {
        "name": "ankral",
        "latitude": 17.4125,
        "longitude": 78.7625
      },
      {
        "name": "ankreddipalli",
        "latitude": 17.998889,
        "longitude": 78.919722
      },
      {
        "name": "ankua",
        "latitude": 22.3,
        "longitude": 85.25
      },
      {
        "name": "anna ka jhonpara",
        "latitude": 25.967778,
        "longitude": 75.550833
      },
      {
        "name": "annamalai",
        "latitude": 11.4,
        "longitude": 79.733333
      },
      {
        "name": "annamalainagar",
        "latitude": 11.4,
        "longitude": 79.733333
      },
      {
        "name": "anna nagar",
        "latitude": 13.082778,
        "longitude": 80.219167
      },
      {
        "name": "anna nagar west",
        "latitude": 13.091944,
        "longitude": 80.199167
      },
      {
        "name": "annapareddipalle",
        "latitude": 17.383333,
        "longitude": 80.783333
      },
      {
        "name": "annaram",
        "latitude": 17.022222,
        "longitude": 78.179722
      },
      {
        "name": "annasagar",
        "latitude": 17.844722,
        "longitude": 78.791389
      },
      {
        "name": "annavaram",
        "latitude": 17.283333,
        "longitude": 82.4
      },
      {
        "name": "annavasal",
        "latitude": 10.466667,
        "longitude": 78.7
      },
      {
        "name": "annigeri",
        "latitude": 15.433333,
        "longitude": 75.433333
      },
      {
        "name": "annur",
        "latitude": 11.233333,
        "longitude": 77.133333
      },
      {
        "name": "anojiguda",
        "latitude": 17.430556,
        "longitude": 78.655
      },
      {
        "name": "anowa",
        "latitude": 7.966667,
        "longitude": 93.55
      },
      {
        "name": "ansahra",
        "latitude": 27.083333,
        "longitude": 82.666667
      },
      {
        "name": "anshi",
        "latitude": 14.983333,
        "longitude": 74.366667
      },
      {
        "name": "anshing",
        "latitude": 20.033333,
        "longitude": 77.316667
      },
      {
        "name": "ansing",
        "latitude": 20.033333,
        "longitude": 77.316667
      },
      {
        "name": "anta",
        "latitude": 25.15,
        "longitude": 76.3
      },
      {
        "name": "antagarh",
        "latitude": 20.0925,
        "longitude": 81.156389
      },
      {
        "name": "antaigudam",
        "latitude": 17.86,
        "longitude": 78.837778
      },
      {
        "name": "antammagudam",
        "latitude": 17.286389,
        "longitude": 78.84
      },
      {
        "name": "antampet",
        "latitude": 17.036667,
        "longitude": 78.890556
      },
      {
        "name": "antapur",
        "latitude": 20.95,
        "longitude": 73.416667
      },
      {
        "name": "antaram",
        "latitude": 17.328611,
        "longitude": 78.0325
      },
      {
        "name": "antarasante",
        "latitude": 12.0175,
        "longitude": 76.299722
      },
      {
        "name": "antarba",
        "latitude": 19.383333,
        "longitude": 84.183333
      },
      {
        "name": "antarda",
        "latitude": 25.666667,
        "longitude": 76.1
      },
      {
        "name": "antarvedi",
        "latitude": 16.333333,
        "longitude": 81.733333
      },
      {
        "name": "antarvedidalem",
        "latitude": 16.416667,
        "longitude": 81.783333
      },
      {
        "name": "antarvedipalem",
        "latitude": 16.416667,
        "longitude": 81.783333
      },
      {
        "name": "anthara",
        "latitude": 25.4,
        "longitude": 75.8
      },
      {
        "name": "anthredigudam",
        "latitude": 17.241389,
        "longitude": 78.418333
      },
      {
        "name": "antri",
        "latitude": 26.056667,
        "longitude": 78.214444
      },
      {
        "name": "antri kalan",
        "latitude": 24.316667,
        "longitude": 75.233333
      },
      {
        "name": "antu",
        "latitude": 26.05,
        "longitude": 81.916667
      },
      {
        "name": "antur",
        "latitude": 20.433333,
        "longitude": 75.233333
      },
      {
        "name": "anugul",
        "latitude": 20.85,
        "longitude": 85.1
      },
      {
        "name": "anumalkuduru",
        "latitude": 16.483333,
        "longitude": 80.65
      },
      {
        "name": "anumanandal",
        "latitude": 11.566667,
        "longitude": 78.916667
      },
      {
        "name": "anupgarh",
        "latitude": 29.191111,
        "longitude": 73.208611
      },
      {
        "name": "anupnagar",
        "latitude": 29.0,
        "longitude": 77.666667
      },
      {
        "name": "anuppura",
        "latitude": 25.297778,
        "longitude": 75.522222
      },
      {
        "name": "anuppur",
        "latitude": 23.1,
        "longitude": 81.683333
      },
      {
        "name": "anupshaher",
        "latitude": 28.966667,
        "longitude": 75.216667
      },
      {
        "name": "anupshahr",
        "latitude": 28.366667,
        "longitude": 78.266667
      },
      {
        "name": "anur",
        "latitude": 32.066667,
        "longitude": 76.016667
      },
      {
        "name": "anva",
        "latitude": 20.416667,
        "longitude": 75.783333
      },
      {
        "name": "anwa",
        "latitude": 25.795833,
        "longitude": 75.602778
      },
      {
        "name": "anwali",
        "latitude": 28.998611,
        "longitude": 76.755556
      },
      {
        "name": "anwaliwala",
        "latitude": 30.403611,
        "longitude": 77.986667
      },
      {
        "name": "anwalkhera",
        "latitude": 24.983333,
        "longitude": 74.7
      },
      {
        "name": "anwaram",
        "latitude": 17.631111,
        "longitude": 78.381389
      },
      {
        "name": "anyana",
        "latitude": 33.141667,
        "longitude": 74.258333
      },
      {
        "name": "anyar",
        "latitude": 33.666667,
        "longitude": 75.8
      },
      {
        "name": "aochagalimi",
        "latitude": 26.166667,
        "longitude": 94.533333
      },
      {
        "name": "aonla",
        "latitude": 28.283333,
        "longitude": 79.15
      },
      {
        "name": "aonla kila",
        "latitude": 28.283333,
        "longitude": 79.15
      },
      {
        "name": "aphen",
        "latitude": 33.283333,
        "longitude": 76.116667
      },
      {
        "name": "aphit",
        "latitude": 33.866667,
        "longitude": 74.566667
      },
      {
        "name": "appananallur",
        "latitude": 11.05,
        "longitude": 78.383333
      },
      {
        "name": "appanapalli",
        "latitude": 16.783333,
        "longitude": 77.866667
      },
      {
        "name": "appavoo nagar",
        "latitude": 13.026389,
        "longitude": 80.228889
      },
      {
        "name": "appikatla",
        "latitude": 15.966667,
        "longitude": 80.5
      },
      {
        "name": "apranli",
        "latitude": 28.516667,
        "longitude": 95.883333
      },
      {
        "name": "aprunyi",
        "latitude": 28.583333,
        "longitude": 95.85
      },
      {
        "name": "apta",
        "latitude": 18.866667,
        "longitude": 73.133333
      },
      {
        "name": "apti",
        "latitude": 18.1,
        "longitude": 73.75
      },
      {
        "name": "aqilpur",
        "latitude": 32.744444,
        "longitude": 74.783333
      },
      {
        "name": "aqilwala",
        "latitude": 27.816667,
        "longitude": 71.75
      },
      {
        "name": "ara",
        "latitude": 25.566667,
        "longitude": 84.666667
      },
      {
        "name": "arag",
        "latitude": 16.783333,
        "longitude": 74.8
      },
      {
        "name": "arahama",
        "latitude": 34.3,
        "longitude": 74.816667
      },
      {
        "name": "arai",
        "latitude": 24.933333,
        "longitude": 85.316667
      },
      {
        "name": "araidanga",
        "latitude": 25.116667,
        "longitude": 87.983333
      },
      {
        "name": "arain",
        "latitude": 26.45,
        "longitude": 75.033333
      },
      {
        "name": "arainj-laka-punga",
        "latitude": 12.6,
        "longitude": 92.716667
      },
      {
        "name": "arajkund",
        "latitude": 20.683333,
        "longitude": 80.7
      },
      {
        "name": "arakeri",
        "latitude": 16.916667,
        "longitude": 75.7
      },
      {
        "name": "arakharwar",
        "latitude": 34.258333,
        "longitude": 74.283333
      },
      {
        "name": "arakhera",
        "latitude": 21.711111,
        "longitude": 76.824722
      },
      {
        "name": "arakkonam",
        "latitude": 13.1,
        "longitude": 79.666667
      },
      {
        "name": "araku",
        "latitude": 18.333333,
        "longitude": 82.866667
      },
      {
        "name": "aralagodu",
        "latitude": 14.15,
        "longitude": 74.816667
      },
      {
        "name": "aralgundgi",
        "latitude": 16.933333,
        "longitude": 76.5
      },
      {
        "name": "aramaganori",
        "latitude": 8.566667,
        "longitude": 78.116667
      },
      {
        "name": "aramba",
        "latitude": 21.6,
        "longitude": 80.066667
      },
      {
        "name": "arambagh",
        "latitude": 22.883333,
        "longitude": 87.783333
      },
      {
        "name": "arambakam",
        "latitude": 13.533333,
        "longitude": 80.066667
      },
      {
        "name": "arambakkam",
        "latitude": 13.533333,
        "longitude": 80.066667
      },
      {
        "name": "arambol",
        "latitude": 15.7,
        "longitude": 73.7
      },
      {
        "name": "aramboli",
        "latitude": 8.25,
        "longitude": 77.55
      },
      {
        "name": "aramboly",
        "latitude": 8.25,
        "longitude": 77.55
      },
      {
        "name": "aramda",
        "latitude": 22.4,
        "longitude": 69.016667
      },
      {
        "name": "arampura",
        "latitude": 34.093056,
        "longitude": 74.773611
      },
      {
        "name": "arampur",
        "latitude": 34.129167,
        "longitude": 74.620833
      },